{"pageProps":{"ganpatiPandals":[{"name":"Lalbaugcha Raja","latitude":"19.0096","longitude":"72.8335","address":"Dr Baba Saheb Ambedkar Rd, Lalbaug, Parel, Mumbai","pincode":"400012","google_link":"https://www.google.com/maps?q=Lalbaugcha+Raja+Mumbai","how_to_reach":""},{"name":"Ganesh Galli Mumbaicha Raja","latitude":"19.0092","longitude":"72.833","address":"Ganesh Galli, Lalbaug, Mumbai","pincode":"400012","google_link":"https://www.google.com/maps?q=Ganesh+Galli+Mumbaicha+Raja+Mumbai","how_to_reach":""},{"name":"Andhericha Raja","latitude":"19.1335","longitude":"72.8331","address":"Azad Nagar, Andheri West, Mumbai","pincode":"400053","google_link":"https://www.google.com/maps?q=Andhericha+Raja+Mumbai","how_to_reach":""},{"name":"GSB Seva Mandal","latitude":"19.0185","longitude":"72.8441","address":"Rafi Ahmed Kidwai Rd, Matunga East, Mumbai","pincode":"400019","google_link":"https://www.google.com/maps?q=GSB+Seva+Mandal+Mumbai","how_to_reach":""},{"name":"Chinchpoklicha Chintamani","latitude":"19.0098","longitude":"72.8312","address":"Dattaram Lad Marg, Chinchpokli, Mumbai","pincode":"400011","google_link":"https://www.google.com/maps?q=Chinchpoklicha+Chintamani+Mumbai","how_to_reach":""},{"name":"Khetwadicha Ganraj","latitude":"18.9545","longitude":"72.8233","address":"12th Khetwadi Lane, Girgaon, Mumbai","pincode":"400004","google_link":"https://www.google.com/maps?q=Khetwadicha+Ganraj+Mumbai","how_to_reach":""},{"name":"Siddhivinayak Temple","latitude":"19.0176","longitude":"72.8303","address":"Prabhadevi, Mumbai","pincode":"400028","google_link":"https://www.google.com/maps?q=Siddhivinayak+Temple+Mumbai","how_to_reach":""},{"name":"Fortcha Icchapurti Ganesh","latitude":"18.9317","longitude":"72.8355","address":"Ballard Estate, Fort, Mumbai","pincode":"400001","google_link":"https://www.google.com/maps?q=Fortcha+Icchapurti+Ganesh+Mumbai","how_to_reach":""},{"name":"Girgaoncha Raja","latitude":"18.954","longitude":"72.823","address":"Nikadwari Lane, Girgaon, Mumbai","pincode":"400004","google_link":"https://www.google.com/maps?q=Girgaoncha+Raja+Mumbai","how_to_reach":""},{"name":"Parelcha Raja","latitude":"19.008","longitude":"72.837","address":"Nare Park, Parel, Mumbai","pincode":"400012","google_link":"https://www.google.com/maps?q=Parelcha+Raja+Mumbai","how_to_reach":""}]},"__N_SSG":true}