{"pageProps":{"ganpatiPandals":[{"name":"Lalbaugcha Raja","latitude":"19.0096","longitude":"72.8335","address":"Dr Baba Saheb Ambedkar Rd, Lalbaug, Parel, Mumbai","pincode":"400012","total_available_days":"11","ganpati_visarjan_date":"07 Sep 2025 (Sunday)","how_to_reach":"","google_link":"https://maps.app.goo.gl/7gdHHbWAhqS5hfiDA"},{"name":"Ganesh Galli Mumbaicha Raja","latitude":"19.0092","longitude":"72.833","address":"Ganesh Galli, Lalbaug, Mumbai","pincode":"400012","total_available_days":"11","ganpati_visarjan_date":"07 Sep 2025 (Sunday)","how_to_reach":"","google_link":"https://maps.app.goo.gl/KpN4qdcBXi1zE4xU7"},{"name":"Andhericha Raja","latitude":"19.1335","longitude":"72.8331","address":"Azad Nagar, Andheri West, Mumbai","pincode":"400053","total_available_days":"21","ganpati_visarjan_date":"17 Sep 2025 (Wednesday)","how_to_reach":"","google_link":"https://www.google.com/maps?q=Andhericha+Raja+Mumbai"},{"name":"GSB Seva Mandal","latitude":"19.0185","longitude":"72.8441","address":"Rafi Ahmed Kidwai Rd, Matunga East, Mumbai","pincode":"400019","total_available_days":"11","ganpati_visarjan_date":"07 Sep 2025 (Sunday)","how_to_reach":"","google_link":"https://www.google.com/maps?q=GSB+Seva+Mandal+Mumbai"},{"name":"Chinchpoklicha Chintamani","latitude":"19.0098","longitude":"72.8312","address":"Dattaram Lad Marg, Chinchpokli, Mumbai","pincode":"400011","total_available_days":"11","ganpati_visarjan_date":"07 Sep 2025 (Sunday)","how_to_reach":"","google_link":"https://www.google.com/maps?q=Chinchpoklicha+Chintamani+Mumbai"},{"name":"Khetwadicha Ganraj","latitude":"18.9545","longitude":"72.8233","address":"12th Khetwadi Lane, Girgaon, Mumbai","pincode":"400004","total_available_days":"11","ganpati_visarjan_date":"07 Sep 2025 (Sunday)","how_to_reach":"","google_link":"https://www.google.com/maps?q=Khetwadicha+Ganraj+Mumbai"},{"name":"Borivalicha Raja - Shiv Mitra Mandal","latitude":"19.2240528","longitude":"72.8225971","address":"Hitendra kale compound, Dattapada Rd, Mumbai, Asara Colony, Borivali East, Mumbai","pincode":"400066","total_available_days":"11","ganpati_visarjan_date":"07 Sep 2025 (Sunday)","how_to_reach":"","google_link":"https://maps.app.goo.gl/TJpDSB8EQ2TnoADK8"},{"name":"Fortcha Icchapurti Ganesh","latitude":"18.9317","longitude":"72.8355","address":"Ballard Estate, Fort, Mumbai","pincode":"400001","total_available_days":"11","ganpati_visarjan_date":"07 Sep 2025 (Sunday)","how_to_reach":"","google_link":"https://www.google.com/maps?q=Fortcha+Icchapurti+Ganesh+Mumbai"},{"name":"Girgaoncha Raja","latitude":"18.954","longitude":"72.823","address":"Nikadwari Lane, Girgaon, Mumbai","pincode":"400004","total_available_days":"11","ganpati_visarjan_date":"07 Sep 2025 (Sunday)","how_to_reach":"","google_link":"https://www.google.com/maps?q=Girgaoncha+Raja+Mumbai"},{"name":"Parelcha Raja","latitude":"19.008","longitude":"72.837","address":"Nare Park, Parel, Mumbai","pincode":"400012","total_available_days":"11","ganpati_visarjan_date":"07 Sep 2025 (Sunday)","how_to_reach":"","google_link":"https://www.google.com/maps?q=Parelcha+Raja+Mumbai"}]},"__N_SSG":true}